,City,Country,Cloudiness,Humidity,Lat,Lng,Max Temperature,Wind Speed
0,New Norfolk,AU,12,44,-42.7826,147.0587,79.88,3.0
1,George Town,MY,20,82,5.4112,100.3354,84.13,5.01
2,Nome,US,82,95,64.5011,-165.4064,9.55,5.32
3,Cape Town,ZA,40,88,-33.9258,18.4232,66.61,6.91
4,Coquimbo,CL,0,88,-29.9533,-71.3436,60.53,3.44
5,Alice Springs,AU,5,43,-23.7,133.8833,99.95,11.5
6,Los Llanos de Aridane,ES,40,77,28.6585,-17.9182,60.55,11.5
7,Fayaoué,NC,100,75,-20.65,166.5333,82.62,8.52
8,Kasongo-Lunda,CD,100,97,-6.4667,16.8167,70.21,0.38
9,Port Alfred,ZA,1,82,-33.5906,26.891,65.89,6.46
10,Zhigansk,RU,97,96,66.7697,123.3711,-15.3,1.83
11,Cherskiy,RU,66,94,68.75,161.3,-7.56,2.68
12,Talnakh,RU,100,98,69.4865,88.3972,-11.72,3.96
13,Saint-Joseph,RE,21,83,-21.3667,55.6167,73.78,8.68
14,Airai,TL,43,66,-8.9266,125.4092,72.0,3.91
15,Yulara,AU,34,28,-25.2406,130.9889,96.64,9.22
16,Kenai,US,100,66,60.5544,-151.2583,35.69,8.05
17,Nanortalik,GL,100,88,60.1432,-45.2371,20.46,18.34
18,Ribeira Grande,PT,77,53,38.5167,-28.7,58.62,5.68
19,Hobart,AU,40,60,-42.8794,147.3294,80.22,18.41
20,Katherine,AU,22,52,-14.4667,132.2667,93.52,8.05
21,Kaitangata,NZ,83,73,-46.2817,169.8464,61.93,6.53
22,Albany,US,98,76,42.6001,-73.9662,28.74,2.75
23,Vestmannaeyjar,IS,100,63,63.4427,-20.2734,41.36,19.91
24,Yellowknife,CA,20,70,62.456,-114.3525,-8.88,2.3
25,General Pico,AR,0,50,-35.6566,-63.7568,66.2,4.47
26,Aginskoye,RU,100,79,51.1,114.53,17.26,6.69
27,Geraldton,AU,0,29,-28.7667,114.6,75.61,20.71
28,Arraial do Cabo,BR,2,88,-22.9661,-42.0278,76.78,20.92
29,Chui,UY,0,82,-33.6971,-53.4616,67.73,6.04
30,Tazovsky,RU,98,100,67.4667,78.7,-23.13,0.83
31,Safi,MA,87,89,32.2994,-9.2372,55.51,9.6
32,Punta Arenas,CL,100,93,-53.15,-70.9167,51.91,9.22
33,Jamestown,US,100,67,42.097,-79.2353,39.29,9.22
34,Ilulissat,GL,74,52,69.2167,-51.1,28.0,16.8
35,Tiksi,RU,91,99,71.6872,128.8694,-20.6,2.68
36,Cairns,AU,44,57,-16.9167,145.7667,99.28,8.05
37,Vaini,TO,75,89,-21.2,-175.2,84.36,8.05
38,Barrow,US,93,100,71.2906,-156.7887,-2.52,4.83
39,Shingū,JP,0,36,33.7333,135.9833,54.59,12.48
40,Pa Sang,TH,33,32,18.5262,98.9394,90.86,0.4
41,Marulanda,CO,99,99,5.2839,-75.2602,50.02,0.22
42,Butaritari,KI,100,82,3.0707,172.7902,80.8,13.91
43,East London,ZA,2,77,-33.0153,27.9116,70.03,4.85
44,College,US,100,75,64.8569,-147.8028,30.52,3.44
45,Saint-Philippe,RE,38,86,-21.3585,55.7679,74.79,8.43
46,Hargeisa,SO,13,69,9.56,44.065,58.03,6.17
47,Campbell River,CA,100,93,50.0163,-125.2446,47.59,4.61
48,Tuktoyaktuk,CA,20,71,69.4541,-133.0374,-0.4,16.11
49,Kavaratti,IN,42,66,10.5669,72.642,82.51,11.61
50,Takanosu,JP,75,81,40.2219,140.3694,41.76,18.41
51,Gouyave,GD,20,83,12.1646,-61.7296,77.77,11.5
52,Rusape,ZW,2,95,-18.5278,32.1284,58.91,2.53
53,Castro,BR,100,97,-24.7911,-50.0119,63.41,3.65
54,Kapaa,US,22,72,22.0752,-159.319,78.78,1.01
55,Ushuaia,AR,75,76,-54.8,-68.3,49.66,5.75
56,Aksu,CN,0,33,41.1231,80.2644,43.0,3.67
57,Atar,MR,0,33,20.5169,-13.0499,68.92,11.34
58,Kaitong,CN,16,75,44.8135,123.15,24.6,11.43
59,Hermanus,ZA,1,91,-34.4187,19.2345,65.89,9.35
60,Christchurch,NZ,100,60,-43.5333,172.6333,71.47,9.22
61,Samarai,PG,79,68,-10.6167,150.6667,85.37,5.44
62,Ancud,CL,84,96,-41.8697,-73.8203,60.33,5.99
63,Rikitea,PF,11,69,-23.1203,-134.9692,80.06,17.56
64,Badin,PK,0,50,24.656,68.8384,67.89,13.71
65,Kisarazu,JP,44,58,35.3747,139.9225,56.21,3.24
66,Narsaq,GL,100,88,60.9167,-46.05,15.87,7.61
67,Hilo,US,21,98,19.7297,-155.09,76.8,3.67
68,Banes,CU,25,75,20.9625,-75.7186,74.75,6.49
69,Egvekinot,RU,4,84,66.3167,-179.1667,9.09,7.61
70,Juneau,US,100,99,58.3019,-134.4197,40.21,1.88
71,Usinsk,RU,98,94,65.9939,57.5281,27.7,21.7
72,Saldanha,ZA,4,92,-33.0117,17.9442,64.45,2.51
73,Jiaxing,CN,94,71,30.7522,120.75,62.62,6.22
74,Pevek,RU,74,98,69.7008,170.3133,-13.76,2.55
75,Sitka,US,97,91,57.0531,-135.33,35.78,3.18
76,Kulhudhuffushi,MV,65,57,6.6221,73.07,82.65,5.91
77,Mataura,NZ,91,40,-46.1927,168.8643,67.48,4.7
78,Whyalla,AU,33,51,-33.0333,137.5833,84.09,6.91
79,Malbork,PL,6,86,54.0359,19.0266,34.12,4.63
80,Tuatapere,NZ,100,56,-46.1333,167.6833,67.82,7.27
81,Cabo San Lucas,MX,1,62,22.8909,-109.9124,70.61,6.89
82,Camacha,PT,75,88,33.0833,-16.3333,60.22,9.22
83,Port Augusta,AU,7,25,-32.5,137.7667,93.7,3.18
84,Lebu,CL,72,95,-37.6167,-73.65,60.24,14.18
85,Sinnamary,GF,100,92,5.3833,-52.95,76.19,8.7
86,Thompson,CA,0,55,55.7435,-97.8558,-2.04,5.75
87,Menongue,AO,89,97,-14.6585,17.691,60.15,3.0
88,Hasaki,JP,94,68,35.7333,140.8333,53.89,5.06
89,Calama,CL,0,63,-22.4667,-68.9333,61.29,13.8
90,Olafsvik,IS,80,76,64.8945,-23.7142,38.97,19.57
91,Nikolskoye,RU,9,97,59.7035,30.7861,30.09,3.8
92,Lompoc,US,0,74,34.6391,-120.4579,65.57,6.91
93,Faya,SA,2,51,18.3851,42.4509,55.51,3.44
94,Provideniya,RU,75,74,64.3833,-173.3,23.11,20.13
95,Kumta,IN,50,32,14.4167,74.4,79.56,6.87
96,Iralaya,HN,0,71,15.0,-83.2333,77.11,11.88
97,Atasū,KZ,58,98,48.6814,71.6433,-1.03,4.65
98,Port Macquarie,AU,22,53,-31.4333,152.9167,84.88,6.2
99,Iquitos,PE,75,100,-3.7481,-73.2472,73.44,0.0
100,Buerarema,BR,100,95,-14.9594,-39.2997,82.99,1.59
101,Ostrovnoy,RU,100,97,68.0531,39.5131,27.21,6.6
102,Gao,ML,51,28,16.6362,1.637,77.92,9.24
103,Rocha,UY,0,77,-34.4833,-54.3333,64.65,7.0
104,Nosy Varika,MG,57,92,-20.5833,48.5333,75.47,3.49
105,Krasnokamensk,RU,100,65,50.0979,118.0369,13.42,4.68
106,Arrondissement de Rennes,FR,100,93,48.1667,-1.6667,50.18,8.05
107,Palora,EC,100,93,-1.7,-77.9333,66.63,1.3
108,Carnarvon,AU,0,38,-24.8667,113.6333,78.87,19.57
109,Bambous Virieux,MU,75,100,-20.3428,57.7575,78.22,13.8
110,Dubuque,US,100,66,42.4833,-90.8668,37.54,13.13
111,Dauphin,CA,0,65,51.1494,-100.0502,-5.66,10.36
112,Innisfail,AU,44,61,-17.5333,146.0333,99.21,9.75
113,Bredasdorp,ZA,0,77,-34.5322,20.0403,64.27,4.61
114,Wodonga,AU,0,73,-36.1167,146.8833,87.28,11.5
115,Atuona,PF,13,80,-9.8,-139.0333,78.53,20.13
116,Moindou,NC,100,70,-21.6924,165.677,87.75,8.72
117,Raja,SS,6,54,8.4596,25.678,74.8,3.6
118,Nioro,GM,83,25,13.35,-15.75,74.86,7.54
119,Najrān,SA,1,37,17.4924,44.1277,59.65,2.21
120,Mehamn,NO,100,83,71.0357,27.8492,30.61,35.46
121,Fare,PF,17,72,-16.7,-151.0167,82.04,15.75
122,Longyearbyen,SJ,100,85,78.2186,15.6401,12.04,12.66
123,Dikson,RU,100,96,73.5069,80.5464,-14.13,8.55
124,Flin Flon,CA,7,94,54.7682,-101.865,-2.2,7.49
125,Peleduy,RU,100,92,59.6289,112.7406,19.81,8.88
126,Freetown,SL,100,78,8.484,-13.2299,74.8,4.14
127,Pangkalanbuun,ID,100,51,-2.6833,111.6167,89.87,4.7
128,Grand-Santi,GF,92,99,4.25,-54.3833,72.27,2.19
129,Hofn,IS,100,80,64.2539,-15.2082,39.47,4.79
130,Sirte,LY,79,53,31.2089,16.5887,56.25,10.45
131,Candolim,IN,100,30,15.5181,73.7626,82.4,12.66
132,Khatanga,RU,100,92,71.9667,102.5,-8.82,6.67
133,Sangar,RU,57,92,63.9242,127.4739,-6.12,4.16
134,Tateyama,JP,11,65,34.9833,139.8667,56.14,3.4
135,Saskylakh,RU,28,98,71.9167,114.0833,-26.48,3.47
136,Cayenne,GF,75,90,4.9333,-52.3333,78.1,5.01
137,kimparana,ML,96,22,12.8347,-4.9244,84.31,0.69
138,Busselton,AU,49,42,-33.65,115.3333,71.04,5.77
139,Lázaro Cárdenas,MX,0,76,17.9583,-102.2,75.0,3.96
140,Port-Gentil,GA,100,81,-0.7193,8.7815,81.25,3.98
141,Alugan,PH,29,84,12.2188,125.4808,80.85,12.88
142,Azul,AR,0,64,-36.777,-59.8585,54.93,8.01
143,Birao,CF,15,21,10.2849,22.7882,73.71,3.78
144,Bengkulu,ID,81,67,-3.8004,102.2655,83.35,3.69
145,Boyuibe,BO,97,91,-20.4167,-63.2833,70.39,2.06
146,Vao,NC,67,78,-22.6667,167.4833,79.72,16.87
147,Guymon,US,2,11,36.6828,-101.4816,50.02,8.79
148,Hammond,US,100,79,41.5834,-87.5,43.09,16.11
149,Oddur,SO,1,75,4.1213,43.8894,70.63,15.12
150,Burnie,AU,38,69,-41.0667,145.9167,72.95,12.73
151,Manta,EC,75,83,-0.95,-80.7333,80.38,4.61
152,Haines Junction,CA,92,63,60.7522,-137.5108,24.75,1.14
153,Kamenka,RU,100,98,51.3223,42.7678,28.74,6.33
154,Koumac,NC,100,65,-20.5667,164.2833,84.07,6.15
155,Hong Kong,HK,64,79,22.2855,114.1577,69.85,18.99
156,Kruisfontein,ZA,0,77,-34.0033,24.7314,61.88,5.77
157,Caravelas,BR,100,90,-17.7125,-39.2481,76.1,3.33
158,Puerto Ayora,EC,60,93,-0.7393,-90.3518,77.56,1.01
159,Sittwe,MM,5,30,20.15,92.9,77.2,7.52
160,Grindavik,IS,75,87,63.8424,-22.4338,37.35,16.11
161,Marrakesh,MA,0,66,31.6315,-8.0083,50.07,2.3
162,Rivers,CA,99,95,50.0308,-100.2403,-9.13,5.73
163,Qaanaaq,GL,0,55,77.484,-69.3632,6.58,7.31
164,Griffith,US,100,80,41.5284,-87.4237,43.0,5.01
165,Warah,PK,0,63,27.4481,67.7978,62.33,2.68
166,Bethel,US,82,72,41.3712,-73.414,40.3,3.98
167,Altar,MX,99,18,30.7,-111.8167,70.41,6.67
168,Vila Velha,BR,20,88,-20.3297,-40.2925,78.75,5.75
169,Barentu,ER,6,56,15.1139,37.5928,72.37,4.88
170,Cidreira,BR,11,95,-30.1811,-50.2056,74.28,5.84
171,Acajutla,SV,0,64,13.5928,-89.8275,81.81,8.34
172,Mahajanga,MG,81,87,-15.7167,46.3167,77.18,4.63
173,Yar-Sale,RU,100,97,66.8333,70.8333,5.95,9.42
174,Fortuna,US,100,93,40.5982,-124.1573,56.48,5.75
175,Klamath Falls,US,100,41,42.2249,-121.7817,51.87,4.0
176,Bathsheba,BB,12,83,13.2167,-59.5167,77.94,16.71
177,Kirakira,SB,99,78,-10.4544,161.9205,82.29,3.78
178,Ponta do Sol,PT,31,81,32.6667,-17.1,65.07,3.96
179,Suoyarvi,RU,100,97,62.0833,32.35,25.38,5.39
180,Nemuro,JP,97,78,43.3236,145.575,31.69,13.4
181,Upington,ZA,1,29,-28.4478,21.2561,68.09,2.91
182,Alikalia,SL,88,81,9.1667,-11.4,68.76,2.95
183,Lahaina,US,0,81,20.8783,-156.6825,78.94,3.87
184,Constitución,CL,50,93,-35.3333,-72.4167,59.61,6.33
185,Kiama,AU,88,93,-34.6833,150.8667,75.58,1.01
186,Sabzawār,IR,41,47,36.2126,57.6819,52.05,3.4
187,Zliten,LY,2,69,32.4674,14.5687,50.49,9.78
188,Saint Paul Harbor,US,100,93,57.79,-152.4072,36.91,4.61
189,Esperance,AU,79,55,-33.8667,121.9,65.08,18.95
190,Upernavik,GL,100,89,72.7868,-56.1549,-3.96,8.14
191,Bluff,NZ,89,71,-46.6,168.3333,66.79,4.65
192,Riyadh,SA,24,28,24.6877,46.7219,67.6,10.13
193,Clyde River,CA,100,85,70.4692,-68.5914,3.43,40.29
194,Puerto Peñasco,MX,100,43,31.3167,-113.5333,67.91,5.37
195,La Asuncion,VE,5,100,11.0333,-63.8628,67.73,14.97
196,Kuusamo,FI,75,86,65.9667,29.1833,28.44,11.5
197,Alta Floresta,BR,100,96,-9.8756,-56.0861,71.87,2.62
198,Rio Grande,BR,0,89,-32.035,-52.0986,71.71,7.76
199,Mar del Plata,AR,0,74,-38.0023,-57.5575,60.87,1.99
200,Funadhoo,MV,75,57,6.15,73.2667,82.51,7.81
201,Itimādpur,IN,3,42,27.25,78.2,67.06,4.88
202,Renfrew,GB,100,86,55.872,-4.3925,46.44,11.5
203,Baltiysk,RU,5,86,54.6538,19.911,35.58,7.31
204,Rørvik,NO,100,66,64.8621,11.2373,39.33,8.68
205,Iqaluit,CA,100,70,63.7506,-68.5145,-5.31,17.0
206,Mossamedes,AO,74,82,-15.1961,12.1522,74.23,5.08
207,Chestermere,CA,100,91,51.0334,-113.8187,22.91,10.36
208,Zambezi,ZM,98,97,-13.5432,23.1047,63.5,3.91
209,Souillac,MU,54,86,-20.5167,57.5167,78.37,14.52
210,Kapit,MY,93,63,2.0167,112.9333,87.91,1.72
211,Kumul,CN,66,27,42.8,93.45,41.04,0.63
212,Carauari,BR,100,95,-4.8828,-66.8958,72.14,0.98
213,Kununurra,AU,40,58,-15.7667,128.7333,91.38,8.05
214,Wajima,JP,47,73,37.4,136.9,43.92,21.14
215,Halifax,CA,71,75,44.6453,-63.5724,28.09,5.99
216,Torbay,CA,100,92,47.6666,-52.7314,32.29,27.63
217,Port Elizabeth,ZA,0,81,-33.918,25.5701,64.09,6.96
218,Bad Bentheim,DE,5,64,52.3167,7.1667,35.58,7.23
219,Marsá Maţrūḩ,EG,39,61,31.3525,27.2453,55.22,27.07
220,Harper,LR,73,90,4.375,-7.7169,75.9,7.25
221,Lüderitz,NA,0,91,-26.6481,15.1594,63.48,5.35
222,Yārāda,IN,40,83,17.65,83.2667,77.32,2.3
223,Krasnyy Chikoy,RU,100,76,50.3643,108.7512,21.2,10.94
224,Comodoro Rivadavia,AR,8,48,-45.8667,-67.5,69.73,25.34
225,The Pas,CA,10,98,53.8251,-101.2541,-5.28,7.54
226,Aubenas,FR,44,90,44.6201,4.3899,44.47,4.36
227,Auki,SB,99,82,-8.7676,160.7034,82.24,3.11
228,Mariehamn,AX,0,80,60.0973,19.9348,35.46,8.05
229,Lima,PE,100,72,-12.0432,-77.0282,70.39,4.14
230,Andros Town,BS,0,62,24.7,-77.7667,73.71,10.63
231,Bac Lieu,VN,100,62,9.285,105.7244,84.6,18.79
232,Kahului,US,4,80,20.8947,-156.47,78.96,1.99
233,Cockburn Town,TC,6,76,21.4612,-71.1419,78.31,13.24
234,Pisco,PE,100,84,-13.7,-76.2167,70.02,1.01
235,Inta,RU,100,96,66.0317,60.1659,29.32,20.8
236,Chernyshevskiy,RU,100,91,63.0128,112.4714,8.71,6.55
237,Tandaltī,SD,5,31,13.0167,31.8667,77.59,9.71
238,Hamilton,US,94,52,39.1834,-84.5333,60.49,7.9
239,Leningradskiy,RU,96,97,69.3833,178.4167,0.07,5.93
240,Ishigaki,JP,75,78,24.3448,124.1572,71.73,13.8
241,North Platte,US,0,42,41.1239,-100.7654,58.37,5.99
242,Waipawa,NZ,94,58,-41.4122,175.5153,63.93,7.25
243,Erenhot,CN,0,65,43.6475,111.9767,27.68,13.76
244,Klaksvík,FO,100,89,62.2266,-6.589,43.72,37.45
245,Mahon,ES,75,93,39.8885,4.2658,52.36,3.44
246,Stornoway,GB,100,82,58.2093,-6.3865,46.92,17.27
247,Kwekwe,ZW,20,88,-18.9281,29.8149,61.61,5.35
248,Avarua,CK,40,79,-21.2078,-159.775,84.25,8.05
249,Lotofaga,WS,76,78,-13.9764,-171.8578,86.79,13.42
250,Khani,GE,100,80,41.9563,42.9566,49.57,6.93
251,Mahébourg,MU,66,83,-20.4081,57.7,78.26,16.11
252,Tutóia,BR,58,86,-2.7619,-42.2744,78.4,8.28
253,Vrnjačka Banja,RS,100,79,43.6167,20.9,34.83,3.89
254,Evensk,RU,81,66,61.95,159.2333,21.24,23.0
255,Bandarbeyla,SO,1,76,9.4942,50.8122,73.89,13.13
256,Dhanera,IN,0,42,24.5167,72.0167,69.24,11.39
257,Guerrero Negro,MX,100,60,27.9769,-114.0611,63.81,9.73
258,Lavrentiya,RU,27,92,65.5833,-171.0,9.66,7.56
259,Nurota,UZ,69,56,40.5614,65.6886,33.89,3.87
260,Kisangani,CD,91,97,0.5167,25.2,69.08,1.14
261,San Cristobal,VE,98,93,7.7669,-72.225,66.69,1.1
262,Shihezi,CN,100,81,44.3,86.0333,31.5,3.11
263,Itarema,BR,73,86,-2.9248,-39.9167,77.5,7.83
264,Chokurdakh,RU,82,98,70.6333,147.9167,-17.84,2.77
265,Nouadhibou,MR,0,74,20.931,-17.0347,64.94,23.6
266,Faanui,PF,48,76,-16.4833,-151.75,81.5,15.28
267,Naze,JP,1,57,28.3667,129.4833,57.9,7.58
268,Ulladulla,AU,100,90,-35.35,150.4667,75.87,12.59
269,Pangnirtung,CA,100,86,66.1451,-65.7125,6.13,1.86
270,Kavieng,PG,97,73,-2.5744,150.7967,83.16,5.26
271,Madang,PG,83,72,-5.2246,145.7966,84.67,6.71
272,Vostok,RU,98,82,46.4856,135.8833,15.22,12.88
273,Hithadhoo,MV,25,71,-0.6,73.0833,82.99,13.24
274,Lincoln,US,0,60,40.8,-96.667,57.58,20.71
275,Bereda,ES,100,100,43.2686,-7.5406,50.0,5.17
276,Wad Medani,SD,4,23,14.4012,33.5199,80.31,9.75
277,Padang,ID,77,66,-0.9492,100.3543,77.05,2.89
278,Mikumi,TZ,100,97,-7.4041,36.9831,69.33,1.23
279,Manche,FR,100,96,49.0,-1.1667,45.81,4.61
280,Jeypore,IN,90,32,18.85,82.5833,77.74,2.08
281,Poum,NC,100,75,-20.2333,164.0167,81.68,8.75
282,Ambilobe,MG,100,96,-13.2,49.05,74.26,4.9
283,Yuci,CN,0,17,37.6803,112.7319,42.55,4.47
284,Malya,TZ,12,85,-2.9833,33.5167,62.98,2.73
285,Santa Isabel,BR,69,79,-23.3156,-46.2214,75.65,1.3
286,Aloleng,PH,73,63,16.1307,119.7824,83.84,8.9
287,Mopipi,BW,100,83,-21.1833,24.8833,71.19,4.54
288,Lagoa,PT,93,56,39.05,-27.9833,57.54,6.13
289,Touros,BR,95,80,-5.1989,-35.4608,79.7,8.75
290,Chapada dos Guimarães,BR,100,92,-15.4606,-55.7497,64.06,4.03
291,Grand Gaube,MU,18,92,-20.0064,57.6608,78.39,3.0
292,Ushtobe,KZ,97,86,45.2514,77.9838,40.41,3.65
293,Ukiah,US,20,55,39.1502,-123.2078,59.02,1.01
294,Shubarshi,KZ,16,90,48.5872,57.1869,9.1,6.49
295,Belmonte,BR,87,87,-15.8631,-38.8828,79.3,5.03
296,Nianzishan,CN,8,58,47.5167,122.8833,25.02,9.98
297,Vallenar,CL,0,57,-28.5708,-70.7581,68.68,2.95
298,San Andrés,CO,100,88,12.5847,-81.7006,77.02,12.66
299,Olinda,BR,40,78,-8.0089,-34.8553,82.13,5.75
300,Santa Ana,US,20,47,33.7456,-117.8678,75.79,5.75
301,Aklavik,CA,37,98,68.2191,-135.0107,-3.37,9.4
302,Severo-Kuril'sk,RU,94,60,50.6789,156.125,25.16,32.39
303,Eydhafushi,MV,82,60,5.1033,73.0708,82.6,9.64
304,Omsukchan,RU,100,91,62.5333,155.8,2.82,6.64
305,Lac du Bonnet,CA,24,100,50.2536,-96.0612,-17.86,4.18
306,Meïganga,CM,99,25,6.5167,14.3,67.77,2.39
307,Shitanjing,CN,36,22,39.2342,106.3439,39.56,27.78
308,Arraias,BR,65,89,-12.9288,-46.9437,67.24,2.46
309,Nantucket,US,0,70,41.2835,-70.0995,35.96,3.44
310,Vanavara,RU,100,89,60.34,102.2797,8.46,12.19
311,Jieshi,CN,39,72,22.8134,115.8257,73.94,16.87
312,Eidfjord,NO,8,85,60.4675,7.0719,26.6,7.58
313,Fort Nelson,CA,83,99,58.8053,-122.7002,0.54,0.54
314,Qaqortoq,GL,100,86,60.7167,-46.0333,23.5,9.1
315,Umluj,SA,4,71,25.0213,37.2685,74.39,6.26
316,Ciudad Bolivar,VE,10,71,8.1222,-63.5497,80.51,13.69
317,Içara,BR,100,99,-28.7133,-49.3,71.35,1.97
318,São Filipe,CV,0,70,14.8961,-24.4956,72.1,14.85
319,Srednekolymsk,RU,100,91,67.45,153.6833,-1.25,9.98
320,Saint-Augustin,CA,100,96,51.226,-58.6502,22.1,9.35
321,Whitehorse,CA,99,97,60.7161,-135.0538,17.31,4.14
322,Omboué,GA,100,85,-1.5746,9.2618,79.41,2.89
323,Dushanbe,TJ,17,61,38.5577,68.7797,42.62,2.24
324,Churintzio,MX,68,44,20.15,-102.0667,61.84,3.74
325,São Gabriel da Cachoeira,BR,99,98,-0.1303,-67.0892,72.05,1.1
326,Sørland,NO,100,63,67.667,12.6934,37.78,11.18
327,Deputatsky,RU,99,96,69.3,139.9,-13.77,3.36
328,Soyo,AO,98,88,-6.1349,12.3689,79.81,3.78
329,Cururupu,BR,28,94,-1.8283,-44.8683,74.34,2.21
330,Solnechnyy,RU,89,70,50.7214,136.6319,15.91,2.3
331,Springdale,US,0,42,36.1867,-94.1288,60.93,6.91
332,Slave Lake,CA,98,93,55.2834,-114.769,16.77,8.37
333,Arrondissement d'Arcachon,FR,100,100,44.5875,-1.0519,45.41,2.3
334,Inírida,CO,94,97,3.8653,-67.9239,73.83,1.43
335,Rognan,NO,100,86,67.0953,15.3878,35.74,3.42
336,Marana,US,0,22,32.4367,-111.2254,77.07,5.75
337,Alofi,NU,47,76,-19.0595,-169.9187,82.29,11.25
338,Kupang,ID,29,82,-10.1667,123.5833,83.12,9.84
339,Bariadi,TZ,22,80,-2.8,33.9833,62.17,5.28
340,Manicoré,BR,100,98,-5.8092,-61.3003,74.03,1.54
341,Kalemie,CD,100,91,-5.9475,29.1947,67.93,6.29
342,Kozhva,RU,100,90,65.1073,57.0459,28.78,13.22
343,Tocopilla,CL,13,71,-22.092,-70.1979,70.97,1.99
344,Kampot,KH,70,57,10.6167,104.1833,80.65,5.21
345,Isangel,VU,61,78,-19.55,169.2667,83.77,12.12
346,São João da Barra,BR,2,90,-21.6403,-41.0511,76.21,12.68
347,Okha,RU,87,84,53.5739,142.9478,4.95,13.4
348,La Sarre,CA,100,92,48.8002,-79.1996,-2.22,10.71
349,Inongo,CD,89,84,-1.95,18.2667,72.7,4.65
350,Kyren,RU,89,59,51.6828,102.1408,17.8,9.93
351,Şahbuz,AZ,100,84,39.4072,45.5739,44.2,1.68
352,Acaraú,BR,76,86,-2.8856,-40.12,77.76,8.01
353,Alyangula,AU,94,65,-13.8483,136.4192,86.95,5.08
354,Lata,PT,100,90,40.1629,-8.3327,55.81,3.8
355,Acapulco de Juárez,MX,0,78,16.8634,-99.8901,78.62,4.61
356,Edewecht,DE,93,91,53.1333,7.9833,32.25,7.07
357,San Patricio,US,100,83,28.017,-97.5169,62.46,6.96
358,Ossora,RU,100,90,59.2353,163.0719,25.86,26.64
359,Muncie,US,100,76,40.1934,-85.3864,54.48,4.61
360,Urucará,BR,78,87,-2.5364,-57.76,74.64,1.54
361,La Ronge,CA,7,100,55.1001,-105.2842,-10.88,4.79
362,Camp Verde,US,67,29,34.5636,-111.8543,67.12,3.56
363,Shimoda,JP,30,44,34.6667,138.95,52.11,19.08
364,Brigantine,US,0,76,39.4101,-74.3646,45.05,8.05
365,Port-Cartier,CA,100,78,50.0334,-66.8654,11.75,11.81
366,Meulaboh,ID,69,72,4.1363,96.1285,82.38,2.71
367,Malakal,SS,89,41,9.5334,31.6605,82.4,3.0
368,Sfântu Gheorghe,RO,98,95,45.8667,25.7833,30.92,3.13
369,Winneba,GH,61,83,5.3511,-0.6231,77.13,7.65
370,Buchanan,LR,100,89,5.8808,-10.0467,73.36,4.34
371,Ust-Tsilma,RU,95,90,65.441,52.1498,29.7,11.1
372,Dhidhdhoo,MV,76,58,6.8833,73.1,82.67,6.06
373,Tilichiki,RU,70,74,60.4667,166.1,19.85,10.11
374,Portobelo,PA,78,88,9.55,-79.65,76.82,12.17
375,Pandan,PH,61,81,14.0453,124.1694,81.1,14.32
376,Urengoy,RU,100,96,65.9667,78.3667,-1.25,3.15
377,Saint-Paul,RE,8,77,-21.0096,55.2707,75.31,0.85
378,Ilhabela,BR,88,79,-23.7781,-45.3581,78.98,2.17
379,Gigmoto,PH,68,83,13.7796,124.39,80.38,12.73
380,San Jose,US,100,51,37.3394,-121.895,63.28,9.22
381,Mahibadhoo,MV,100,64,3.7833,72.9667,82.87,13.22
382,Jati,PK,0,46,24.3539,68.2671,69.44,13.73
383,Bela,IN,0,36,25.9333,81.9833,69.96,2.44
384,Djambala,CG,91,88,-2.5447,14.7533,68.94,1.3
385,Namatanai,PG,99,65,-3.6667,152.4333,85.75,3.36
386,Maceió,BR,20,88,-9.6658,-35.7353,78.24,2.3
387,Hambantota,LK,40,94,6.1241,81.1185,77.34,8.05
388,Oranjestad,AW,57,87,12.524,-70.027,78.91,20.83
389,Baharly,TM,10,47,38.4362,57.4316,56.01,5.3
390,Flinders,AU,93,90,-34.5833,150.8552,76.37,5.99
391,Cedar City,US,0,46,37.6775,-113.0619,49.17,4.61
392,Port Hardy,CA,40,81,50.6996,-127.4199,43.75,3.44
393,Maragogi,BR,21,83,-9.0122,-35.2225,78.66,5.17
394,Portland,US,100,96,45.5234,-122.6762,52.11,1.01
395,Bambanglipuro,ID,100,70,-7.95,110.2833,83.75,9.69
396,Todos Santos,MX,27,72,23.45,-110.2167,73.2,2.08
397,Fairbanks,US,100,79,64.8378,-147.7164,28.31,4.61
398,San Quintín,MX,100,58,30.4833,-115.95,62.28,2.42
399,Glendive,US,100,100,47.1053,-104.7125,28.02,13.8
400,San Jose de Guanipa,VE,16,70,8.8872,-64.1651,78.64,12.68
401,Ust-Nera,RU,100,93,64.5667,143.2,2.86,4.09
402,Cherdyn',RU,85,98,60.403,56.4787,19.26,3.91
403,Katsuura,JP,49,63,35.1333,140.3,51.91,2.13
404,Bend,US,100,86,44.0582,-121.3153,45.57,6.91
405,Ixtapa,MX,0,78,20.7,-105.2,72.63,1.01
406,Borzya,RU,100,81,50.3833,116.5167,12.96,4.27
407,Paamiut,GL,100,90,61.994,-49.6678,16.84,9.84
408,Thinadhoo,MV,40,67,0.5333,72.9333,82.69,12.62
409,Richmond,US,20,68,37.5538,-77.4603,53.06,4.61
410,Skellefteå,SE,1,59,64.7507,20.9528,30.56,13.8
411,Banda Aceh,ID,99,70,5.5577,95.3222,82.74,3.02
412,Bela Cruz,BR,78,93,-3.0506,-40.1678,74.46,3.0
413,Henderson,US,0,16,36.0397,-114.9819,72.84,6.91
414,Sechura,PE,92,69,-5.5569,-80.8222,74.89,3.71
415,Lubao,PH,72,51,14.9167,120.55,87.15,14.76
416,Shirokiy,RU,6,78,49.758,129.523,15.98,4.99
417,Onokhino,RU,98,89,56.925,65.5394,23.32,7.63
418,Tura,IN,0,23,25.5198,90.2201,77.2,0.85
419,Tasiilaq,GL,100,84,65.6145,-37.6368,30.36,26.44
420,Atambua,ID,24,68,-9.1061,124.8925,82.49,4.5
421,Iwanai,JP,100,99,42.9744,140.5089,33.62,2.93
422,Malanje,AO,100,96,-9.5402,16.341,63.81,0.96
423,Albanel,CA,98,96,48.8832,-72.4487,8.74,3.91
424,Howard Springs,AU,96,72,-12.497,131.047,92.98,8.39
425,Nhulunbuy,AU,75,78,-12.2333,136.7667,79.41,20.71
426,Oriximiná,BR,49,87,-1.7656,-55.8661,74.89,2.59
427,Karratha,AU,14,41,-20.7377,116.8463,95.79,7.87
428,Brae,GB,5,77,60.3964,-1.353,42.71,23.98
429,Somanda,TZ,23,86,-3.3667,33.95,63.72,4.59
430,Ternate,ID,100,71,0.8,127.4,83.53,4.54
431,Burns Lake,CA,100,98,54.2331,-125.7533,31.51,1.07
432,Sisimiut,GL,81,90,66.9395,-53.6735,11.44,10.47
433,Telde,ES,20,68,27.9924,-15.4192,62.82,19.57
434,Debre Birhan,ET,59,58,9.6833,39.5333,46.06,4.54
435,Shumskiy,RU,82,73,54.8318,99.1328,11.88,13.11
436,Melfort,CA,9,96,52.8667,-104.6177,-16.42,5.73
437,Tokur,RU,99,82,53.1333,132.9,6.8,4.99
438,Oblivskaya,RU,100,95,48.5362,42.5014,37.8,12.93
439,Tela,HN,22,85,15.7833,-87.45,75.07,7.07
440,Muros,ES,100,93,42.7762,-9.0603,55.09,20.8
441,Misratah,LY,7,65,32.3754,15.0925,52.32,10.33
442,Phalombe,MW,98,92,-15.8064,35.6507,62.26,0.87
443,Tāybād,IR,96,50,34.74,60.7756,54.37,3.33
444,Husavik,IS,100,97,66.0449,-17.3389,35.02,5.75
445,Prince Rupert,CA,100,93,54.3161,-130.3201,40.21,3.8
446,Pacocha,PE,86,84,-17.5833,-71.3333,70.54,0.76
447,Aripuanã,BR,100,99,-9.1667,-60.6333,72.5,1.34
448,Hastings,GB,100,83,50.8552,0.5729,46.9,8.57
449,Mareeba,AU,52,70,-17.0,145.4333,94.66,5.64
450,Vehari,PK,35,78,30.0333,72.35,59.4,7.34
451,Port Hawkesbury,CA,63,91,45.6169,-61.3485,25.18,3.0
452,Margate,GB,100,87,51.3813,1.3862,45.95,3.0
453,Nantong,CN,33,47,32.0303,120.8747,64.02,4.0
454,Ekibastuz,KZ,7,90,51.6667,75.3667,12.25,10.38
455,Dingle,PH,66,64,10.9995,122.6711,86.27,14.32
456,Chapais,CA,81,100,49.7834,-74.8492,-7.82,4.03
457,Port Blair,IN,40,79,11.6667,92.75,84.24,9.22
458,Lábrea,BR,98,93,-7.2586,-64.7981,73.13,1.77
459,Altamont,US,0,40,42.2068,-121.7372,50.77,17.27
460,Manzhouli,CN,100,72,49.6,117.4333,13.12,4.92
461,Mount Gambier,AU,72,38,-37.8333,140.7667,85.6,4.32
462,Cape Canaveral,US,0,78,28.4058,-80.6048,70.03,6.91
463,Guánica,PR,71,90,17.9716,-66.908,76.21,1.01
464,Portales,US,1,18,34.1862,-103.3344,58.93,8.48
465,Gravdal,NO,98,64,68.1214,13.5031,36.46,10.85
466,Niles,US,100,80,42.0189,-87.8028,42.75,18.41
467,Tucumã,BR,46,92,-0.1833,-50.05,75.9,5.14
468,Bull Savanna,JM,8,75,17.8868,-77.5902,73.26,2.51
469,Methóni,GR,95,64,36.8197,21.7049,43.21,21.23
470,Sept-Îles,CA,100,75,50.2001,-66.3821,12.06,1.01
471,Pacific Grove,US,0,56,36.6177,-121.9166,62.28,4.61
472,Bani Walid,LY,0,74,31.7566,13.9942,44.55,4.88
473,Balabac,PH,40,75,7.9868,117.0645,83.59,16.04
474,Port Moresby,PG,49,61,-9.4431,147.1797,86.2,8.59
475,Killybegs,IE,100,83,54.6333,-8.45,39.45,15.5
476,Abnūb,EG,76,56,27.2696,31.1511,61.16,14.18
477,Mpigi,UG,44,78,0.225,32.3136,63.3,3.0
478,Palu,ID,90,61,-0.8917,119.8707,89.26,3.51
479,Lorengau,PG,92,68,-2.0226,147.2712,85.41,3.31
480,Oranjemund,NA,0,92,-28.55,16.4333,63.95,2.91
481,Trincomalee,LK,100,65,8.5711,81.2335,81.9,18.39
482,Lærdal,NO,8,83,61.098,7.4816,26.44,7.05
483,Matara,LK,100,74,5.9485,80.5353,79.03,5.77
484,Monticello,US,40,57,45.3055,-93.7941,27.03,6.91
485,Fegyvernek,HU,13,64,47.2667,20.5333,30.22,5.28
486,El Alto,PE,97,74,-4.2714,-81.2147,73.47,3.24
487,North Bend,US,100,97,43.4065,-124.2243,49.24,0.0
488,Río Gallegos,AR,100,93,-51.6226,-69.2181,51.85,17.27
489,Sinop Province,TR,100,99,41.7711,34.8709,29.89,3.65
490,Broken Hill,AU,0,36,-31.95,141.4333,83.84,11.16
491,Gunjur,GM,13,68,13.2019,-16.7339,68.07,6.91
492,Basco,PH,28,76,20.4487,121.9702,75.22,13.8
493,Ţahţā,EG,18,46,26.7693,31.5021,63.34,17.94
494,Celestún,MX,0,71,20.8667,-90.4,70.83,11.05
495,Vetlanda,SE,5,91,57.4289,15.0776,27.39,4.88
496,Inhambane,MZ,2,81,-23.865,35.3833,70.5,2.59
497,Norman Wells,CA,16,95,65.282,-126.8329,-2.67,5.44
498,Bonthe,SL,73,82,7.5264,-12.505,75.67,2.19
499,Challans,FR,89,94,46.8436,-1.8749,50.27,8.5
500,Vultureni,RO,92,88,46.3667,27.2833,34.03,15.1
501,Kodinsk,RU,100,89,58.6881,99.1844,5.11,12.46
502,Baykit,RU,100,90,61.67,96.37,5.02,9.71
503,Puerto Escondido,MX,40,69,15.85,-97.0667,81.43,0.0
504,Morros,BR,100,85,-9.4467,-46.3003,72.34,2.33
505,Havelock,US,0,72,34.8791,-76.9013,60.78,1.99
506,Sinjār,IQ,100,75,36.3209,41.8754,53.38,20.0
507,Kangaatsiaq,GL,38,81,68.3065,-53.4641,16.23,19.48
508,Rincon,US,0,62,32.296,-81.2354,61.86,5.75
509,São José da Coroa Grande,BR,24,84,-8.8978,-35.1478,78.71,5.39
510,Sioux Lookout,CA,17,96,50.1001,-91.917,-3.75,5.46
511,Elk River,US,76,91,45.3038,-93.5672,26.6,7.14
512,Ribas do Rio Pardo,BR,98,87,-20.4431,-53.7592,70.25,3.33
513,Luba,GQ,90,84,3.4568,8.5547,80.64,5.35
514,Hirara,JP,99,77,24.8,125.2833,68.22,15.46
515,Porbandar,IN,0,55,21.6422,69.6093,74.32,11.25
516,Funtua,NG,8,9,11.5233,7.3081,69.66,7.52
517,Øksfjord,NO,100,89,70.2396,22.3479,31.12,26.91
518,Arrondissement d'Ajaccio,FR,93,87,42.0,8.9167,39.69,6.91
519,Pucallpa,PE,75,100,-8.3791,-74.5539,77.04,2.3
520,Homer,US,100,83,59.6425,-151.5483,35.49,10.36
521,Viedma,AR,1,55,-40.8135,-62.9967,63.25,13.06
522,Adrar,MR,0,35,20.5022,-10.0711,64.49,12.39
523,Līsakovsk,KZ,68,96,52.5369,62.4936,9.45,7.2
524,Avera,US,0,48,33.194,-82.5271,63.54,6.17
525,Hearst,CA,66,100,49.6835,-83.6665,-13.77,2.71
526,Esso,RU,100,86,55.9333,158.7,21.54,8.32
527,Kargopol',RU,100,85,61.5071,38.9456,28.89,4.27
528,Mandalgovi,MN,50,23,45.7625,106.2708,28.2,19.91
529,Araouane,ML,46,29,18.9048,-3.5265,67.55,15.08
530,Port Hedland,AU,100,49,-20.3167,118.5667,93.25,9.22
531,Derzhavīnsk,KZ,37,95,51.1,66.3167,0.48,5.46
532,Bodden Town,KY,20,78,19.2833,-81.25,77.0,6.91
533,Zhangye,CN,87,23,38.9342,100.4517,39.88,3.78
534,Saucillo,MX,51,16,28.0167,-105.2833,68.58,7.4
535,San Francisco,US,75,80,37.7749,-122.4194,62.13,7.0
536,Ekhabi,RU,88,82,53.5102,142.9671,5.63,13.22
537,Hay River,CA,59,100,60.8156,-115.7999,-12.32,4.68
538,Yerbogachën,RU,100,91,61.2767,108.0108,17.71,6.91
539,Balkanabat,TM,75,44,39.5108,54.3671,58.46,7.47
540,Kismayo,SO,75,85,-0.3582,42.5454,77.86,15.9
541,Pittsburg,US,0,59,38.028,-121.8847,62.73,6.91
542,Bonavista,CA,100,87,48.6499,-53.1147,33.12,32.32
543,Amahai,ID,10,63,-3.3333,128.9167,87.84,5.1
544,Eyl,SO,6,83,7.9803,49.8164,70.47,9.04
545,Pontianak,ID,40,74,-0.0333,109.3333,84.18,4.61
546,Udimskiy,RU,100,98,61.1417,45.9144,19.18,4.47
547,Clarence Town,AU,100,98,-32.5833,151.7833,74.8,11.79
548,Codrington,AU,17,47,-38.2667,141.9667,82.17,10.94
549,Båtsfjord,NO,100,93,70.6345,29.7185,31.1,35.88
550,Coyhaique,CL,75,59,-45.5752,-72.0662,62.55,4.61
551,Adré,TD,97,11,13.4667,22.2,72.68,10.04
552,Bratsk,RU,98,81,56.1325,101.6142,9.09,16.31
553,Sawtell,AU,31,69,-30.3833,153.1,84.18,12.66
554,Esil,KZ,97,99,51.9556,66.4042,1.85,6.89
555,Sambava,MG,98,91,-14.2667,50.1667,75.61,3.83
556,Denia,ES,9,80,38.8408,0.1057,56.84,5.01
557,Yenagoa,NG,68,90,4.9247,6.2642,77.79,3.56
558,Gorontalo,ID,47,61,0.5412,123.0595,89.29,1.7
559,Kamaishi,JP,88,81,39.2667,141.8833,41.95,14.03
560,Dunedin,NZ,79,58,-45.8742,170.5036,63.16,4.85
561,Darhan,MN,100,75,49.4867,105.9228,20.68,13.6
562,Jumla,NP,1,43,29.2747,82.1838,47.77,1.01
563,Kandrian,PG,72,64,-6.2167,149.55,86.27,5.44
564,Leshukonskoye,RU,100,94,64.8989,45.7622,28.09,6.73
565,Wapi Pathum,TH,3,43,15.8452,103.3768,87.06,7.76
566,Victoria Point,AU,56,87,-27.5833,153.3,79.11,5.01
567,Nabire,ID,100,68,-3.3667,135.4833,86.16,5.79
