,City Name,Country,Cloudiness,Humidity,Lat,Lng,Max Temperature,Wind Speed
0,Berdigestyakh,RU,100,94,62.0989,126.6992,-6.72,5.23
1,Guerrero Negro,MX,100,51,27.9769,-114.0611,63.79,2.26
2,San Francisco,US,0,53,37.7749,-122.4194,59.14,1.01
3,Dewas,IN,0,33,22.9667,76.0667,60.94,6.71
4,Ust-Nera,RU,100,91,64.5667,143.2,-17.19,1.95
5,Kapaa,US,0,65,22.0752,-159.319,73.72,0.0
6,Fort Nelson,CA,100,93,58.8053,-122.7002,20.79,4.61
7,Busselton,AU,0,29,-33.65,115.3333,88.09,4.38
8,Castro,BR,100,99,-24.7911,-50.0119,65.1,6.53
9,Punta Arenas,CL,0,87,-53.15,-70.9167,42.91,3.44
10,Normandin,CA,100,78,48.8333,-72.5321,14.31,17.27
11,Fairbanks,US,100,77,64.8378,-147.7164,-6.39,0.0
12,Tasiilaq,GL,76,90,65.6145,-37.6368,12.36,8.21
13,Rundu,NA,100,90,-17.9333,19.7667,66.31,5.32
14,Sinnamary,GF,70,88,5.3833,-52.95,74.79,6.33
15,Ushuaia,AR,97,94,-54.8,-68.3,46.06,3.98
16,Ipswich,GB,87,89,52.0592,1.1555,38.12,3.44
17,Hermanus,ZA,32,78,-34.4187,19.2345,67.89,7.05
18,Cape Town,ZA,20,76,-33.9258,18.4232,68.11,5.75
19,Ternate,ID,66,71,0.8,127.4,83.98,2.64
20,Albany,US,100,59,42.6001,-73.9662,27.09,3.2
21,Saskylakh,RU,66,89,71.9167,114.0833,1.04,11.95
22,Avarua,CK,20,89,-21.2078,-159.775,80.65,12.66
23,Cherskiy,RU,50,98,68.75,161.3,-33.18,2.82
24,Nome,US,0,70,64.5011,-165.4064,-7.83,4.61
25,Mataura,NZ,99,35,-46.1927,168.8643,68.63,4.99
26,Tolaga Bay,NZ,55,59,-38.3667,178.3,63.48,8.99
27,Wanning,CN,14,70,18.8003,110.3967,77.76,11.32
28,Codrington,AU,45,71,-38.2667,141.9667,70.43,14.79
29,Pidhorodna,UA,99,87,48.107,30.8895,27.68,8.19
30,Provideniya,RU,91,95,64.3833,-173.3,-0.83,5.46
31,Thompson,CA,75,77,55.7435,-97.8558,-11.04,5.75
32,Uruçuí,BR,100,94,-7.2294,-44.5561,71.96,4.99
33,Ponta do Sol,PT,68,77,32.6667,-17.1,57.0,1.23
34,Ipameri,BR,60,94,-17.7219,-48.1597,65.05,4.56
35,San Quintín,MX,99,68,30.4833,-115.95,57.99,3.18
36,Richards Bay,ZA,36,69,-28.783,32.0377,82.6,9.04
37,Tezu,IN,62,50,27.9167,96.1667,69.06,4.45
38,Kushima,JP,50,41,31.4583,131.2333,57.24,2.77
39,Hofn,IS,100,94,64.2539,-15.2082,42.48,28.32
40,Zapolyarnyy,RU,100,96,69.4154,30.8136,15.89,3.76
41,Juelsminde,DK,4,72,55.7088,10.0167,38.17,18.9
42,Martapura,ID,40,62,-3.4167,114.85,89.69,10.36
43,Tuktoyaktuk,CA,0,76,69.4541,-133.0374,-22.0,11.5
44,Severo-Kuril'sk,RU,95,72,50.6789,156.125,24.58,36.71
45,Upernavik,GL,100,97,72.7868,-56.1549,-2.27,1.79
46,Chui,UY,98,70,-33.6971,-53.4616,65.66,5.48
47,Coquimbo,CL,0,94,-29.9533,-71.3436,58.73,3.44
48,Igarka,RU,100,92,67.4667,86.5833,0.95,23.35
49,Fare,PF,5,75,-16.7,-151.0167,80.94,17.6
50,Quatre Cocos,MU,0,63,-20.2078,57.7625,84.52,9.84
51,Porto Velho,BR,0,94,-8.7619,-63.9039,75.25,2.3
52,La Peca,PE,95,93,-5.6111,-78.435,67.33,1.12
53,Nikolskoye,RU,100,96,59.7035,30.7861,29.88,6.67
54,Evensk,RU,100,81,61.95,159.2333,19.38,34.63
55,Bullhead City,US,1,17,35.1478,-114.5683,58.86,26.46
56,Port Alfred,ZA,65,70,-33.5906,26.891,72.09,17.58
57,Rikitea,PF,89,74,-23.1203,-134.9692,78.39,18.5
58,Hilo,US,20,85,19.7297,-155.09,71.8,4.61
59,Flin Flon,CA,17,99,54.7682,-101.865,-8.73,5.53
60,Thinadhoo,MV,100,62,0.5333,72.9333,81.41,10.85
61,Linxia Chengguanzhen,CN,100,71,35.6003,103.2064,22.5,2.8
62,Bethel,US,90,63,41.3712,-73.414,29.75,9.22
63,Hithadhoo,MV,98,65,-0.6,73.0833,81.36,12.37
64,Sitka,US,100,75,57.0531,-135.33,42.69,19.57
65,Meulaboh,ID,49,65,4.1363,96.1285,85.95,5.21
66,Faanui,PF,14,75,-16.4833,-151.75,81.0,17.29
67,Hūn,LY,4,64,29.1268,15.9477,41.07,1.3
68,Golden,US,0,72,39.7555,-105.2211,21.13,1.99
69,Morehead,US,100,69,37.2711,-87.1764,33.94,0.0
70,Nanchang,CN,100,91,28.6833,115.8833,39.13,9.82
71,Paamiut,GL,73,71,61.994,-49.6678,5.22,15.08
72,Cairns,AU,75,100,-16.9167,145.7667,82.06,3.44
73,Saint-Philippe,RE,65,81,-21.3585,55.7679,83.75,7.27
74,Rincon,US,0,56,32.296,-81.2354,42.85,4.61
75,Bilma,NE,0,22,18.6853,12.9164,53.2,6.76
76,New Norfolk,AU,100,50,-42.7826,147.0587,76.91,4.0
77,Seoul,KR,0,40,37.5683,126.9778,38.59,12.66
78,Topeka,US,100,75,39.0483,-95.678,33.12,3.0
79,Dikson,RU,100,92,73.5069,80.5464,4.98,23.49
80,Leningradskiy,RU,69,97,69.3833,178.4167,-14.78,3.36
81,Qaanaaq,GL,33,60,77.484,-69.3632,-9.08,11.92
82,Poum,NC,74,76,-20.2333,164.0167,82.69,13.94
83,Geraldton,AU,1,42,-28.7667,114.6,88.21,26.46
84,Siocon,PH,50,75,7.7061,122.1353,83.89,2.84
85,Treinta y Tres,UY,94,68,-33.2333,-54.3833,62.6,3.76
86,Ketchikan,US,100,93,55.3422,-131.6461,42.78,12.66
87,Bluff,NZ,99,66,-46.6,168.3333,63.81,10.45
88,Bredasdorp,ZA,19,56,-34.5322,20.0403,72.72,3.44
89,Launceston,AU,100,89,-41.45,147.1667,71.62,1.99
90,Pevek,RU,28,99,69.7008,170.3133,-24.05,1.86
91,Carballo,ES,0,95,43.213,-8.691,43.68,4.09
92,Butaritari,KI,34,79,3.0707,172.7902,82.11,19.86
93,George Town,MY,20,69,5.4112,100.3354,93.13,10.0
94,Tilichiki,RU,100,80,60.4667,166.1,25.34,30.09
95,Desbiens,CA,100,97,48.4178,-71.9495,15.55,15.46
96,Vaini,TO,100,81,-21.2,-175.2,82.15,17.34
97,Tuatapere,NZ,93,70,-46.1333,167.6833,57.07,1.45
98,Tommot,RU,100,95,58.9564,126.2925,0.19,7.67
99,Wanlaweyn,SO,65,36,2.6185,44.8938,87.13,16.55
100,Broken Hill,AU,40,94,-31.95,141.4333,73.11,26.46
101,College,US,100,75,64.8569,-147.8028,1.06,0.0
102,Sola,VU,100,83,-13.8833,167.55,81.14,20.31
103,Barrow,US,0,76,71.2906,-156.7887,-18.38,10.36
104,Trincomalee,LK,50,71,8.5711,81.2335,81.57,15.23
105,Xiongzhou,CN,31,59,25.1167,114.3,63.05,7.72
106,Adrar,MR,78,19,20.5022,-10.0711,62.85,3.96
107,Khāsh,IR,0,23,28.2211,61.2158,62.67,17.25
108,Carnarvon,AU,0,62,-24.8667,113.6333,86.07,16.11
109,Saldanha,ZA,1,80,-33.0117,17.9442,71.65,13.27
110,Vestmannaeyjar,IS,100,88,63.4427,-20.2734,38.39,25.88
111,Porto Belo,BR,100,86,-27.1578,-48.5531,75.16,13.85
112,East London,ZA,40,64,-33.0153,27.9116,74.34,17.27
113,Ancud,CL,0,90,-41.8697,-73.8203,54.93,1.36
114,Qian’an,CN,26,94,44.9932,124.0581,1.27,5.37
115,Jamestown,US,100,71,42.097,-79.2353,25.09,7.0
116,Talnakh,RU,100,85,69.4865,88.3972,6.21,15.64
117,Bathsheba,BB,40,83,13.2167,-59.5167,74.01,4.61
118,Gizo Government Station,SB,100,87,-8.103,156.8419,78.85,13.56
119,Terenos,BR,75,88,-20.4422,-54.8603,74.91,6.91
120,Härnösand,SE,2,58,62.6323,17.9379,32.0,21.03
121,Karratha,AU,70,65,-20.7377,116.8463,81.54,22.44
122,Pacific Grove,US,0,54,36.6177,-121.9166,54.82,10.0
123,Eilat,IL,0,41,29.5581,34.9482,60.64,9.22
124,Ribeira Grande,PT,40,67,38.5167,-28.7,59.4,14.97
125,Hobart,AU,75,86,-42.8794,147.3294,66.11,6.91
126,Saint George,US,0,50,37.1041,-113.5841,39.67,1.99
127,Klaksvík,FO,100,94,62.2266,-6.589,45.52,31.47
128,Esperance,AU,0,76,-33.8667,121.9,67.84,18.88
129,Haines Junction,CA,100,86,60.7522,-137.5108,26.55,3.44
130,Sirte,LY,38,57,31.2089,16.5887,57.24,13.51
131,Ostrovnoy,RU,98,95,68.0531,39.5131,9.45,9.15
132,Puerto Escondido,MX,0,73,15.85,-97.0667,75.85,4.12
133,Kavaratti,IN,42,69,10.5669,72.642,80.64,7.27
134,Løding,NO,40,75,67.3,14.75,35.51,5.99
135,Salym,RU,99,99,60.0625,71.4789,1.71,4.45
136,Khatanga,RU,100,86,71.9667,102.5,0.75,8.43
137,Ixtapa,MX,14,94,20.7,-105.2,65.23,2.82
138,Yellowknife,CA,100,89,62.456,-114.3525,1.42,8.05
139,Wasilla,US,20,89,61.5814,-149.4394,25.36,0.0
140,Comodoro Rivadavia,AR,20,77,-45.8667,-67.5,62.46,3.44
141,Lere,NG,19,15,10.387,8.5726,83.98,10.31
142,Cabo San Lucas,MX,11,77,22.8909,-109.9124,64.51,2.13
143,Whitianga,NZ,20,61,-36.8333,175.7,68.25,5.59
144,Ushtobe,KZ,17,80,45.2514,77.9838,12.27,6.08
145,Serenje,ZM,100,97,-13.2325,30.2352,62.94,3.96
146,Remanso,BR,97,72,-9.6179,-42.0831,78.3,5.5
147,Vardø,NO,75,74,70.3705,31.1107,30.18,20.71
148,Kavieng,PG,98,78,-2.5744,150.7967,81.79,6.46
149,Deputatsky,RU,99,99,69.3,139.9,-26.09,2.46
150,Samarai,PG,88,77,-10.6167,150.6667,80.69,3.98
151,Sisimiut,GL,100,66,66.9395,-53.6735,18.91,19.84
152,Sorong,ID,100,81,-0.8833,131.25,80.55,11.97
153,Wattegama,LK,6,94,6.7989,81.4808,70.63,3.47
154,Panguna,PG,98,78,-6.3164,155.4848,72.63,0.22
155,Los Llanos de Aridane,ES,0,59,28.6585,-17.9182,56.95,11.5
156,El Batey,DO,40,74,19.7667,-70.5167,87.78,11.5
157,Magdagachi,RU,7,72,53.45,125.8,-1.03,8.19
158,Bjørnevatn,NO,100,92,69.6672,29.9847,24.42,6.91
159,Aswān,EG,0,41,24.0934,32.907,50.86,13.2
160,Buraidah,SA,93,34,26.326,43.975,52.25,12.84
161,Santa Rosa,PH,5,89,14.3122,121.1114,78.78,3.27
162,Khandyga,RU,90,99,62.6667,135.6,-40.56,2.68
163,Cabadiangan,PH,100,85,9.7531,122.4739,77.32,3.13
164,Beaverlodge,CA,93,51,55.2166,-119.4361,40.35,17.4
165,San Jose,US,40,37,37.3394,-121.895,70.54,1.01
166,Cobija,BO,94,78,-11.0267,-68.7692,81.55,2.55
167,Barcelos,PT,0,55,41.5388,-8.6151,47.28,6.62
168,Vila Velha,BR,20,84,-20.3297,-40.2925,82.35,11.01
169,Narsaq,GL,100,95,60.9167,-46.05,19.62,7.52
170,Ojinaga,MX,0,33,29.5667,-104.4167,59.58,9.22
171,Gayny,RU,99,98,60.3071,54.3241,1.11,4.41
172,Khovd,MN,12,75,48.0056,91.6419,-11.22,5.7
173,Taree,AU,9,83,-31.9,152.4667,77.11,0.0
174,Lae,PG,100,87,-6.7221,146.9847,77.76,4.61
175,San Luis,AR,14,31,-33.295,-66.3356,82.22,7.99
176,Banda Aceh,ID,21,84,5.5577,95.3222,78.42,5.21
177,Inowrocław,PL,25,100,52.7989,18.2639,33.12,1.99
178,Bandarbeyla,SO,64,76,9.4942,50.8122,74.37,20.09
179,Murakami,JP,100,68,38.2333,139.4833,35.49,9.78
180,Kieta,PG,91,70,-6.2167,155.6333,83.16,3.67
181,Beira,MZ,0,94,-19.8436,34.8389,77.09,4.61
182,Caculé,BR,88,70,-14.5033,-42.2222,73.06,5.08
183,Puerto Ayora,EC,66,76,-0.7393,-90.3518,80.56,9.66
184,Praia,CV,40,64,14.9215,-23.5087,70.34,18.41
185,Meadow Lake,US,1,31,34.8014,-106.5436,47.53,5.88
186,San Vicente,AR,93,77,-26.6167,-54.1333,69.3,5.99
187,Bambous Virieux,MU,40,89,-20.3428,57.7575,79.05,1.14
188,Turukhansk,RU,100,94,65.8167,87.9833,-0.96,12.39
189,San Javier,ES,0,80,37.8063,-0.8374,49.39,6.91
190,Deer Lake,CA,100,74,49.1667,-57.4316,24.66,6.91
191,Ilulissat,GL,100,49,69.2167,-51.1,17.62,24.16
192,Port Lincoln,AU,86,75,-34.7333,135.8667,66.87,15.23
193,Kruisfontein,ZA,12,87,-34.0033,24.7314,63.88,6.58
194,Coahuayana Viejo,MX,25,47,18.7333,-103.6833,90.88,7.81
195,Usinsk,RU,99,97,65.9939,57.5281,1.45,12.35
196,Port-Gentil,GA,20,100,-0.7193,8.7815,76.96,0.0
197,Kashan,IR,0,55,33.9831,51.4364,33.39,4.61
198,Narasannapeta,IN,99,60,18.4167,84.05,62.91,5.84
199,Biak,ID,100,80,-0.9131,122.8766,77.14,3.31
200,Corowa,AU,100,77,-36.0333,146.3833,78.01,1.61
201,Panabá,MX,84,68,21.2833,-88.2667,74.89,13.98
202,Mbandaka,CD,27,40,0.0487,18.2603,76.91,0.31
203,Natal,BR,75,100,-5.795,-35.2094,75.85,1.14
204,Zhalantun,CN,29,81,48.0,122.7167,-3.15,7.7
205,Yulara,AU,61,50,-25.2406,130.9889,78.64,14.97
206,Airai,TL,100,87,-8.9266,125.4092,62.82,3.33
207,Bassar,TG,53,20,9.25,0.7833,75.81,4.07
208,Port Elizabeth,ZA,75,82,-33.918,25.5701,66.09,12.66
209,Araguaçu,BR,97,93,-12.9306,-49.8264,71.73,4.68
210,Atuona,PF,9,71,-9.8,-139.0333,77.81,14.16
211,Portree,GB,100,98,57.4129,-6.1942,49.51,22.37
212,São João da Barra,BR,39,89,-21.6403,-41.0511,77.11,18.16
213,Lagoa,PT,73,58,39.05,-27.9833,57.69,10.83
214,Vanimo,PG,96,86,-2.6741,141.3028,78.64,4.03
215,Westport,US,100,77,41.1415,-73.3579,32.25,5.01
216,Shimoda,JP,87,57,34.6667,138.95,39.11,2.44
217,Nobres,BR,100,94,-14.7203,-56.3275,74.48,2.48
218,Mahébourg,MU,40,89,-20.4081,57.7,79.09,1.14
219,Marabba,SD,9,12,12.35,32.1833,65.88,16.73
220,Cidreira,BR,60,65,-30.1811,-50.2056,70.84,12.73
221,Sinop Province,TR,88,81,41.7711,34.8709,24.13,12.1
222,Sioux Lookout,CA,40,60,50.1001,-91.917,5.38,2.3
223,Hualmay,PE,100,78,-11.0964,-77.6139,71.37,9.57
224,Muriwai Beach,NZ,3,54,-36.8167,174.45,75.42,5.7
225,Mońki,PL,74,73,53.405,22.7979,30.67,18.48
226,Sobolevo,RU,100,99,54.4299,31.8996,31.69,4.72
227,Atar,MR,100,22,20.5169,-13.0499,71.82,6.17
228,Zambezi,ZM,60,92,-13.5432,23.1047,63.77,5.17
229,Chapais,CA,91,98,49.7834,-74.8492,-19.57,3.38
230,Bengkulu,ID,100,87,-3.8004,102.2655,75.81,3.51
231,Makakilo City,US,0,61,21.3469,-158.0858,80.35,12.66
232,Puerto Ayacucho,VE,76,31,5.6639,-67.6236,85.05,6.85
233,Rivadavia,AR,19,35,-33.1905,-68.4608,83.91,14.38
234,São Gabriel da Cachoeira,BR,100,78,-0.1303,-67.0892,79.66,1.21
235,Lorengau,PG,100,82,-2.0226,147.2712,81.57,5.06
236,College Station,US,0,30,30.628,-96.3344,57.42,16.11
237,Alofi,NU,79,70,-19.0595,-169.9187,85.89,13.8
238,Port Blair,IN,40,78,11.6667,92.75,80.64,5.75
239,Itoman,JP,75,96,26.1247,127.6694,65.17,8.05
240,Santo Antônio do Monte,BR,100,85,-20.0872,-45.2936,67.42,1.88
241,Kawalu,ID,97,94,-7.3817,108.2082,72.21,2.24
242,Rondonópolis,BR,97,93,-16.4708,-54.6356,74.7,3.13
243,Pochutla,MX,49,63,15.7432,-96.4661,85.82,5.97
244,Zhigansk,RU,90,97,66.7697,123.3711,-11.34,17.9
245,Elko,US,0,35,41.0002,-115.5012,41.02,3.47
246,Anadyr,RU,20,83,64.75,177.4833,-5.01,4.47
247,Iqaluit,CA,100,76,63.7506,-68.5145,-16.87,12.66
248,Opuwo,NA,20,54,-18.0607,13.84,64.99,5.93
249,Ankara,TR,75,79,39.9199,32.8543,18.79,2.3
250,Half Moon Bay,US,0,43,37.4636,-122.4286,69.64,0.0
251,Bayshore Gardens,US,100,73,27.4253,-82.5904,63.21,4.61
252,Kahului,US,40,54,20.8947,-156.47,82.42,11.5
253,Karasuk,RU,95,98,53.7377,78.0403,-4.61,5.14
254,Mount Gambier,AU,75,77,-37.8333,140.7667,67.91,14.97
255,Benghazi,LY,81,62,32.1167,20.0667,58.03,15.95
256,Antofagasta,CL,39,79,-23.65,-70.4,67.28,5.68
257,Nekā,IR,25,81,36.6508,53.299,39.4,4.38
258,Mar del Plata,AR,0,76,-38.0023,-57.5575,69.82,21.99
259,Udomlya,RU,98,98,57.8794,34.9925,17.35,2.57
260,Shimanovsk,RU,5,82,52.0,127.7,-4.76,9.31
261,Porto-Novo,BJ,59,82,6.4965,2.6036,82.22,0.74
262,‘Āhuimanu,US,40,63,21.4447,-157.8378,80.85,3.0
263,Saint Andrews,US,100,63,34.0454,-81.1293,42.62,7.78
264,Constitución,CL,0,89,-35.3333,-72.4167,58.91,7.07
265,Tortolì,IT,10,81,39.9256,9.6572,46.83,5.93
266,Tancanhuitz,MX,100,94,21.6,-98.9667,54.95,6.4
267,Nuevo Progreso,MX,99,72,23.1667,-97.95,61.59,8.99
268,Lebu,CL,1,87,-37.6167,-73.65,60.85,4.94
269,Tiksi,RU,89,99,71.6872,128.8694,-8.5,7.9
270,Lavrentiya,RU,6,94,65.5833,-171.0,-6.23,3.44
271,Gillette,US,0,42,44.2911,-105.5022,38.95,5.01
272,Mayor Pablo Lagerenza,PY,74,67,-19.9309,-60.7718,78.26,3.36
273,Ilo,PE,85,77,-17.6394,-71.3375,69.03,3.27
274,Olinda,BR,20,78,-8.0089,-34.8553,78.53,3.44
275,Tromsø,NO,40,74,69.6496,18.957,24.82,3.0
276,Aksu,CN,28,50,41.1231,80.2644,22.14,4.5
277,Burns Lake,CA,100,93,54.2331,-125.7533,28.87,2.77
278,Clyde River,CA,100,77,70.4692,-68.5914,-9.17,43.73
279,Ayan,RU,100,84,56.45,138.1667,-5.46,12.21
280,Pokhara,NP,24,59,28.2333,83.9833,44.98,4.34
281,Hede,CN,98,64,33.7681,120.2517,33.33,5.01
282,Bodden Town,KY,0,74,19.2833,-81.25,78.8,1.99
283,Karwar,IN,30,52,14.8,74.1333,72.72,9.64
284,Cayenne,GF,100,90,4.9333,-52.3333,75.09,4.61
285,Laguna,US,0,50,38.421,-121.4238,64.9,1.01
286,Jinxiang,CN,100,84,27.4327,120.6062,46.78,12.88
287,Saint Paul Harbor,US,100,74,57.79,-152.4072,26.11,14.97
288,Rafaela,AR,0,62,-31.2503,-61.4867,71.01,5.46
289,Arman',RU,100,77,59.7,150.1667,9.95,15.1
290,Vila Franca do Campo,PT,51,81,37.7167,-25.4333,58.19,8.9
291,Erzin,TR,29,73,36.9559,36.2,36.32,4.9
292,Yangi Marg`ilon,UZ,40,38,40.4272,71.7189,38.12,6.91
293,Gaillac,FR,25,94,43.9016,1.8969,35.74,1.41
294,Nouadhibou,MR,100,82,20.931,-17.0347,62.58,16.11
295,Tateyama,JP,99,64,34.9833,139.8667,48.47,8.43
296,Terra Santa,BR,100,94,-2.1042,-56.4869,74.86,2.39
297,Sovetsk,RU,81,71,55.0839,21.8785,31.26,8.86
298,Torbay,CA,100,84,47.6666,-52.7314,27.57,9.22
299,East Moline,US,0,60,41.5009,-90.4443,15.37,5.75
300,Kununurra,AU,100,79,-15.7667,128.7333,84.18,8.05
301,Ulkan,RU,100,100,57.243,107.3223,-22.31,2.06
302,Lata,PT,0,59,40.1629,-8.3327,48.06,5.41
303,Great Yarmouth,GB,63,93,52.6083,1.7305,48.94,16.22
304,Innisfail,AU,100,87,-17.5333,146.0333,77.45,2.84
305,Farah,AF,0,53,32.5,62.5,43.95,4.9
306,Tutóia,BR,100,83,-2.7619,-42.2744,75.18,11.05
307,Souris,CA,100,97,49.6172,-100.2612,13.73,4.56
308,Oranjemund,NA,2,87,-28.55,16.4333,63.25,15.03
309,Hirara,JP,75,94,24.8,125.2833,68.27,4.61
310,Magalia,US,100,67,39.8121,-121.5783,57.36,4.25
311,Saravan,AM,99,94,39.7196,45.6483,20.05,1.97
312,Øksfjord,NO,97,93,70.2396,22.3479,18.52,9.4
313,Sayyan,YE,4,30,15.1718,44.3244,46.78,3.24
314,Trento,IT,0,42,46.0679,11.1211,39.96,17.27
315,Point Pleasant,US,100,86,40.0832,-74.0682,33.15,1.01
316,Gimli,CA,100,84,50.6336,-96.9907,3.43,4.61
317,Bacolod City,PH,83,74,10.6667,122.95,82.47,2.98
318,Kaitangata,NZ,100,73,-46.2817,169.8464,63.93,4.38
319,Chokurdakh,RU,81,96,70.6333,147.9167,-31.18,1.97
320,Mayumba,GA,100,89,-3.432,10.6554,76.06,4.41
321,Portland,US,67,59,45.5234,-122.6762,48.13,1.99
322,Nanortalik,GL,100,85,60.1432,-45.2371,27.19,16.42
323,Khani,GE,18,78,41.9563,42.9566,22.57,7.92
324,Galle,LK,41,86,6.0367,80.217,75.07,5.37
325,Baykit,RU,100,100,61.67,96.37,-12.1,1.86
326,Morondava,MG,4,76,-20.2833,44.2833,79.38,0.34
327,Lárdos,GR,16,68,36.0942,28.0157,47.95,3.4
328,Jiuquan,CN,0,45,39.7432,98.5174,17.2,2.82
329,Drăgoiești,RO,95,76,47.55,26.0833,35.76,10.65
330,Lázaro Cárdenas,MX,0,72,17.9583,-102.2,77.09,6.22
331,Aktau,KZ,100,65,43.65,51.2,27.18,12.26
332,Atasū,KZ,100,74,48.6814,71.6433,11.57,9.46
333,Beyneu,KZ,100,89,45.3167,55.2,27.77,14.61
334,Dedovichi,RU,100,94,57.5517,29.9502,24.22,12.12
335,Ghedi,IT,100,100,45.4011,10.2793,43.05,3.44
336,Cândido Mendes,BR,100,94,-1.4467,-45.7167,73.72,6.71
337,Pāsighāt,IN,0,56,28.0667,95.3333,48.99,4.07
338,Jertih,MY,100,75,5.7336,102.4897,76.39,1.92
339,Husavik,IS,100,95,66.0449,-17.3389,24.28,28.63
340,Appleton,US,100,48,44.2619,-88.4154,15.89,5.75
341,Beringovskiy,RU,95,99,63.05,179.3167,-0.67,2.51
342,Port Hardy,CA,75,75,50.6996,-127.4199,46.76,5.75
343,Vanino,RU,100,80,49.0869,140.2543,5.32,5.68
344,Mugur-Aksy,RU,1,73,50.35,90.5,-17.59,6.31
345,Ranong,TH,4,78,9.9658,98.6348,76.93,2.51
346,Aklavik,CA,6,90,68.2191,-135.0107,-19.37,5.46
347,São Filipe,CV,76,69,14.8961,-24.4956,71.31,8.9
348,Guozhen,CN,12,79,34.3659,107.359,29.21,1.45
349,Yichang,CN,100,90,30.7144,111.2847,36.64,2.53
350,Usakos,NA,62,47,-22.0,15.6,72.27,5.75
351,Estelle,US,40,44,29.8458,-90.1067,50.0,10.36
352,Rapid Valley,US,0,40,44.0625,-103.1463,45.45,9.22
353,Kumul,CN,0,54,42.8,93.45,20.08,4.88
354,Darhan,MN,76,99,49.4867,105.9228,-16.2,2.55
355,Gazli,UZ,45,75,40.1333,63.45,34.74,11.68
356,Manaure,CO,84,80,11.7751,-72.4445,76.21,15.64
357,Kabare,CD,95,94,-2.4683,28.8242,59.99,1.45
358,Souillac,MU,75,94,-20.5167,57.5167,77.38,4.61
359,Shiojiri,JP,75,71,36.1,137.9667,37.99,3.44
360,Okato,NZ,66,51,-39.2,173.8833,69.69,6.42
361,Nhulunbuy,AU,40,94,-12.2333,136.7667,77.61,17.27
362,Senanga,ZM,100,95,-16.1167,23.2667,64.38,6.69
363,Río Gallegos,AR,75,67,-51.6226,-69.2181,59.05,23.02
364,San Patricio,US,0,47,28.017,-97.5169,53.49,6.78
365,Isangel,VU,100,94,-19.55,169.2667,80.71,9.22
366,Roald,NO,75,93,62.5833,6.1333,44.74,20.71
367,Ţaga,RO,67,91,46.95,24.05,34.3,15.01
368,Uppsala County,SE,98,72,60.0,17.75,31.78,11.5
369,Huizhou,CN,96,61,23.0833,114.4,63.68,7.49
370,Alanya,TR,4,57,36.5438,31.9998,39.33,7.7
371,Ndioum,SN,100,18,16.5129,-14.6471,75.79,8.99
372,Palmer,US,40,74,42.1584,-72.3287,29.84,6.91
373,Batagay-Alyta,RU,99,95,67.8006,130.4114,-6.11,4.34
374,Umeå,SE,40,100,63.8284,20.2597,29.91,4.61
375,Mahon,ES,0,71,39.8885,4.2658,46.96,6.91
376,Caravelas,BR,43,87,-17.7125,-39.2481,77.04,7.65
377,Gharghoda,IN,0,48,22.1667,83.35,52.7,3.02
378,Sarai,RU,100,95,53.7458,41.0213,19.83,9.84
379,Gīdam,IN,8,49,18.9833,81.4,54.64,2.82
380,Yeppoon,AU,60,65,-23.1333,150.7333,85.78,17.54
381,Grindavik,IS,75,68,63.8424,-22.4338,25.27,20.71
382,Longyearbyen,SJ,0,78,78.2186,15.6401,6.64,14.97
383,Nantucket,US,100,98,41.2835,-70.0995,34.12,14.12
384,Dunedin,NZ,100,62,-45.8742,170.5036,68.02,5.37
385,Dudinka,RU,100,93,69.4058,86.1778,-0.38,18.63
386,Praia,CV,75,68,14.9215,-23.5087,70.34,17.27
387,Chunskiy,RU,69,100,56.0815,99.6342,-14.12,1.48
388,Lodja,CD,100,97,-3.4833,23.4333,70.52,2.73
389,Cícero Dantas,BR,100,86,-10.6,-38.3833,72.25,6.55
390,Esim,GH,61,83,4.8699,-2.2405,77.95,3.18
391,La Ciotat,FR,11,64,43.1748,5.6045,42.46,5.44
392,Aktas,KZ,98,79,49.7789,72.9608,-4.25,5.17
393,Vila do Maio,CV,100,71,15.1333,-23.2167,70.59,17.16
394,Bariloche,AR,0,58,-41.1456,-71.3082,61.34,6.53
395,Peace River,CA,100,91,56.2501,-117.286,20.1,2.62
396,Funadhoo,MV,37,69,6.15,73.2667,82.04,18.07
397,Kajaani,FI,0,92,64.2273,27.7285,12.25,9.22
398,Berezniki,RU,99,100,59.4152,56.8124,-2.33,3.02
399,Bunbury,AU,87,43,-33.3333,115.6333,84.52,4.18
400,Srednekolymsk,RU,100,93,67.45,153.6833,-7.85,3.6
401,Hobyo,SO,98,67,5.3505,48.5268,77.09,18.5
402,Pimentel,PE,100,80,-6.8367,-79.9342,70.74,11.72
403,Sakakah,SA,48,59,29.9697,40.2064,42.37,5.41
404,Nyanza,RW,100,84,-2.3519,29.7509,60.78,3.49
405,Pauini,BR,100,98,-7.7136,-66.9764,73.69,2.28
406,Micheweni,TZ,99,81,-4.9667,39.8333,78.57,5.95
407,Ola,RU,87,77,59.5833,151.2833,14.85,14.94
408,Boende,CD,100,61,-0.2167,20.8667,77.72,0.94
409,Moose Factory,CA,100,71,51.2585,-80.6094,-5.8,6.91
410,Arraial do Cabo,BR,40,100,-22.9661,-42.0278,73.36,0.0
411,Kabompo,ZM,98,98,-13.5927,24.2008,60.58,3.58
412,Shyryayeve,UA,94,77,47.3805,30.1964,34.21,20.58
413,Itarema,BR,100,80,-2.9248,-39.9167,73.8,5.44
414,Finspång,SE,100,93,58.7058,15.7674,35.8,11.56
415,Ambilobe,MG,88,92,-13.2,49.05,72.99,2.13
416,Kasempa,ZM,97,98,-13.4584,25.8338,61.61,3.8
417,Krasnosel'kup,RU,100,96,65.7,82.4667,3.49,10.36
418,Tiznit Province,MA,0,39,29.5833,-9.5,54.48,25.12
419,Brae,GB,100,94,60.3964,-1.353,48.11,32.32
420,Ajdabiya,LY,12,67,30.7554,20.2263,53.38,9.98
421,Cervo,ES,42,86,43.6702,-7.4101,32.2,14.45
422,Victoria Point,AU,33,63,-27.5833,153.3,88.18,5.01
423,Binan,PH,10,53,14.2637,121.0526,88.36,1.92
424,Nanlong,CN,100,76,31.3533,106.0631,42.75,3.58
425,Thayetmyo,MM,88,37,19.3167,95.1833,72.46,4.09
426,Kyren,RU,31,86,51.6828,102.1408,0.93,0.49
427,Flinders,AU,85,66,-34.5833,150.8552,89.8,5.99
428,Mangan,IN,0,24,27.5167,88.5333,58.15,2.89
429,Muros,ES,0,76,42.7762,-9.0603,49.23,6.82
430,Qarqīn,AF,80,62,37.4185,66.0436,43.25,11.72
431,Oistins,BB,3,73,13.0667,-59.5333,74.52,13.73
432,Qui Nhon,VN,48,72,13.7667,109.2333,78.55,5.7
433,Talcahuano,CL,100,82,-36.7167,-73.1167,62.28,3.44
434,Puerto Carreño,CO,96,42,6.189,-67.4859,79.75,8.01
435,Constantine,DZ,0,80,36.365,6.6147,29.61,2.3
436,Saquena,PE,100,93,-4.6667,-73.5167,75.65,1.45
437,Berlevåg,NO,100,60,70.8578,29.0864,29.71,12.26
438,Sibu,MY,100,64,2.3,111.8167,86.02,1.23
439,Izumo,JP,80,52,35.3667,132.7667,45.82,11.88
440,Praia da Vitória,PT,20,83,38.7333,-27.0667,57.76,10.94
441,Angoram,PG,93,89,-4.0625,144.0661,81.64,2.53
442,Mount Isa,AU,75,100,-20.7333,139.5,74.97,10.36
443,Nísia Floresta,BR,97,84,-6.0911,-35.2086,74.21,3.89
444,Bridgetown,BB,20,78,13.1,-59.6167,75.92,8.05
445,Trelleborg,SE,100,89,55.3751,13.1569,39.94,23.42
446,Obigarm,TJ,100,98,38.7173,69.7088,33.8,4.41
447,Marevo,RU,100,96,57.3146,32.0804,24.06,9.13
448,Riyadh,SA,0,36,24.6877,46.7219,48.34,4.88
449,Nelson Bay,AU,0,65,-32.7167,152.15,88.77,4.0
450,Kīhei,US,0,65,20.785,-156.4656,80.96,5.75
451,Randolph,US,100,91,35.7001,-79.8164,36.99,1.99
452,Labuhan,ID,99,70,-6.8844,112.2051,84.2,5.86
453,Nakambala,ZM,100,97,-15.8324,27.7799,64.51,3.09
454,West Lorne,CA,59,87,42.6001,-81.5998,1.22,9.01
455,Padang,ID,87,67,-0.9492,100.3543,86.05,2.53
456,Coyhaique,CL,0,42,-45.5752,-72.0662,66.81,3.44
457,Lourdes,FR,60,93,43.1,-0.05,27.88,4.61
458,Savelugu,GH,15,20,9.6244,-0.8253,74.77,7.11
459,Luorong,CN,99,82,24.4058,109.6086,43.36,12.53
460,Araouane,ML,32,17,18.9048,-3.5265,65.19,11.07
461,Pobé,BJ,12,73,6.9801,2.6649,68.05,0.72
462,Impfondo,CG,19,41,1.6381,18.0667,69.8,2.64
463,Toumodi,CI,84,94,6.5613,-5.0158,73.9,2.39
464,Liseleje,DK,100,92,56.0053,11.9483,40.17,11.99
465,Gdańsk,PL,0,80,54.3521,18.6464,34.09,5.75
466,Lososina,RU,100,66,48.9975,140.3106,8.35,8.28
467,Mocuba,MZ,19,97,-16.8392,36.9856,71.22,2.66
468,Bitung,ID,97,69,1.4451,125.1824,83.25,10.85
469,Kirakira,SB,99,75,-10.4544,161.9205,83.48,8.55
470,Tondano,ID,97,63,1.3038,124.9112,75.29,2.82
471,Mossamedes,AO,100,83,-15.1961,12.1522,70.86,6.26
472,Alto Longá,BR,100,98,-5.2511,-42.2103,70.36,3.22
473,Lompoc,US,0,60,34.6391,-120.4579,57.92,0.0
474,La Ronge,CA,100,92,55.1001,-105.2842,8.85,3.44
475,Fortuna,US,0,83,40.5982,-124.1573,47.32,0.0
476,Juneau,US,100,84,58.3019,-134.4197,42.8,23.02
477,Matata,NZ,17,65,-37.8833,176.75,74.52,10.29
478,Ballina,AU,40,71,-28.8667,153.5667,84.38,12.66
479,Acapulco de Juárez,MX,0,78,16.8634,-99.8901,76.78,3.8
480,Mitsamiouli,KM,20,78,-11.3847,43.2844,75.49,5.75
481,Ratnapura,LK,21,62,6.6828,80.3992,85.1,2.3
482,Dingle,PH,76,64,10.9995,122.6711,87.06,4.59
483,Pingliang,CN,100,80,35.5392,106.6861,26.04,4.34
484,Foso,GH,17,95,5.7012,-1.2866,70.43,0.78
485,Çay,TR,31,77,38.5917,31.0286,13.84,1.97
486,Homer,US,100,88,59.6425,-151.5483,22.08,8.12
487,Bowen,AU,14,66,-20.0167,148.2333,86.22,18.88
488,Mingyue,CN,88,61,43.1069,128.9217,15.58,14.43
489,Kamenka,RU,100,96,51.3223,42.7678,24.15,11.54
490,Omboué,GA,99,87,-1.5746,9.2618,76.62,5.79
491,Nokaneng,BW,80,97,-19.6667,22.2667,65.73,5.21
492,Choma,ZM,99,99,-16.8065,26.9531,61.65,5.14
493,Payson,US,0,56,40.0444,-111.7321,33.4,1.01
494,Maceió,BR,40,83,-9.6658,-35.7353,78.24,11.5
495,Nzérékoré,GN,65,95,7.7562,-8.8179,67.44,2.48
496,Maragogi,BR,100,86,-9.0122,-35.2225,76.24,8.12
497,Katsuura,JP,100,94,35.1333,140.3,44.71,10.98
498,Buala,SB,100,76,-8.145,159.5921,83.37,4.54
499,Eureka,US,35,83,40.8021,-124.1637,46.36,4.18
500,Sørland,NO,100,73,67.667,12.6934,33.13,29.82
501,Rome,US,100,65,43.2128,-75.4557,10.38,9.22
502,Coos Bay,US,0,100,43.3665,-124.2179,45.99,0.0
503,Hong Kong,HK,97,81,22.2855,114.1577,70.97,10.0
504,Rocha,UY,0,80,-34.4833,-54.3333,58.57,3.15
505,Calama,CL,5,54,-22.4667,-68.9333,54.09,2.3
506,Salamiyah,SY,100,96,35.0113,37.0532,37.83,0.38
507,Palauig,PH,57,69,15.435,119.9045,83.68,5.73
508,Saint-Pierre,RE,0,65,-21.3393,55.4781,82.04,2.3
509,Port Harcourt,NG,96,84,4.7774,7.0134,76.06,4.59
510,Xining,CN,22,60,36.6167,101.7667,17.55,2.68
511,Mlonggo,ID,100,72,-6.5333,110.7,87.69,8.14
512,San Matías,BO,97,95,-16.3667,-58.4,73.8,1.32
513,Huaraz,PE,100,89,-9.5333,-77.5333,53.51,2.8
514,Lima,PE,0,74,-12.0432,-77.0282,70.9,11.5
515,Kurdzhinovo,RU,96,80,43.9884,40.9552,22.66,6.17
516,Kaili,ID,100,68,-3.4626,120.2147,78.91,3.38
517,Nsanje,MW,29,98,-16.92,35.262,72.46,1.74
518,Vostok,RU,100,88,46.4856,135.8833,-3.21,11.32
519,Aykhal,RU,85,99,66.0,111.5,-11.83,6.17
520,Raudeberg,NO,100,96,61.9875,5.1352,43.86,8.01
521,Parfino,RU,100,94,57.9731,31.6481,22.28,8.9
522,Khotynets,RU,99,97,53.1286,35.3966,27.16,4.79
523,Severomuysk,RU,49,91,56.1481,113.4267,-6.61,4.99
524,Guhāgar,IN,81,27,17.4842,73.1929,83.8,8.84
525,Basco,PH,86,80,20.4487,121.9702,75.07,27.07
526,San Antonio,US,0,55,29.4241,-98.4936,47.57,4.61
527,Nizhnetroitskiy,RU,88,98,54.3385,53.6833,0.54,3.38
528,Qaqortoq,GL,100,78,60.7167,-46.0333,19.9,12.48
529,Askiz,RU,55,82,53.1319,90.5264,2.12,1.54
530,Sweetwater,US,100,83,25.7634,-80.3731,67.01,1.01
531,Bima,ID,98,73,-8.4667,118.7167,84.38,3.91
532,Salinópolis,BR,100,89,-0.6136,-47.3561,76.5,14.47
533,Chumikan,RU,78,79,54.7183,135.315,-3.6,18.37
534,Ahipara,NZ,100,55,-35.1667,173.1667,73.47,5.75
535,Otradnoye,RU,96,98,59.7775,30.8181,24.85,4.63
536,Diego de Almagro,CL,0,72,-26.3667,-70.05,59.22,1.72
537,Asău,RO,62,92,46.4333,26.4,31.12,4.79
538,Udachny,RU,81,99,66.4167,112.4,-17.91,4.23
539,Kahramanmaraş Province,TR,86,98,38.0,37.0,-1.46,2.21
540,Galion,US,79,86,40.7337,-82.7899,9.19,7.92
541,Cimişlia,MD,68,81,46.52,28.7842,37.54,20.45
542,Tobermory,CA,15,72,45.2501,-81.6665,8.62,3.47
543,Banjar,ID,100,78,-8.19,114.9675,87.66,2.1
544,Hasaki,JP,100,60,35.7333,140.8333,48.29,6.71
545,Kokopo,PG,98,75,-4.352,152.2633,83.68,11.3
546,Pitsunda,GE,100,66,43.1592,40.3378,33.98,7.23
547,Dickinson,US,0,56,29.4608,-95.0513,52.12,6.15
548,Margate,GB,43,86,51.3813,1.3862,51.96,3.0
549,Kushchëvskaya,RU,100,98,46.5564,39.6386,34.5,15.93
550,Muisne,EC,97,91,0.6,-80.0333,74.23,1.63
551,Naze,JP,100,84,28.3667,129.4833,55.17,8.79
552,Mindelo,CV,100,64,16.8901,-24.9804,69.35,13.8
553,Ucluelet,CA,58,88,48.9329,-125.5528,45.09,1.01
554,Byron Bay,AU,50,80,-28.65,153.6167,82.51,10.09
555,Mandalgovi,MN,100,79,45.7625,106.2708,6.64,6.71
556,Farafangana,MG,7,76,-22.8167,47.8333,74.82,4.45
557,Saýat,TM,5,64,38.7839,63.8803,39.33,5.08
558,Oranzherei,RU,21,87,45.8476,47.5663,13.96,6.67
559,Roseau,DM,50,74,15.3017,-61.3881,75.88,9.24
560,Port Hedland,AU,88,55,-20.3167,118.5667,93.25,20.71
561,Bahía de Caráquez,EC,100,89,-0.6,-80.4167,75.38,3.24
562,Quincy,US,100,87,42.2529,-71.0023,33.49,3.0
563,City of San Pedro,PH,20,64,14.35,121.0167,91.35,6.91
564,Te Anau,NZ,99,48,-45.4167,167.7167,68.52,6.8
565,Nuevo Laredo,MX,0,71,27.4763,-99.5164,48.83,4.61
566,Ngunguru,NZ,100,65,-35.6167,174.5,72.16,12.55
567,Barabai,ID,100,56,-2.5833,115.3833,89.38,3.47
568,Eydhafushi,MV,33,70,5.1033,73.0708,82.13,18.86
569,Hafizabad,PK,0,42,32.0679,73.6854,57.07,3.65
570,Östersund,SE,40,80,63.1792,14.6357,31.6,14.97
571,Korla,CN,2,51,41.7597,86.1469,26.46,6.02
572,Faya,SA,35,86,18.3851,42.4509,55.51,7.05
573,Lakes Entrance,AU,100,95,-37.8811,147.981,73.58,5.7
574,Saint-Augustin,CA,100,86,51.226,-58.6502,3.2,10.83
575,Necochea,AR,0,70,-38.5473,-58.7368,65.03,10.67
576,Neustrelitz,DE,100,97,53.3667,13.0833,36.88,14.03
577,Sigli,ID,34,69,5.3848,95.9609,84.6,6.4
578,Sesheke,ZM,96,84,-17.4759,24.2968,68.58,7.4
579,Mutoko,ZW,99,91,-17.397,32.2268,65.23,3.69
580,Cascais,PT,3,41,38.6979,-9.4215,52.47,5.01
581,Okhotsk,RU,100,78,59.3833,143.3,15.19,14.99
582,Norman Wells,CA,100,70,65.282,-126.8329,-11.16,6.91
583,Redlands,US,37,25,34.0556,-117.1825,60.04,4.23
584,Wuwei,CN,0,24,37.9281,102.6414,33.85,4.38
585,Klyuchi,RU,99,82,52.2667,79.1667,10.58,8.55
586,Taveta,KE,94,72,-3.3963,37.6736,74.75,4.85
587,Kilis,TR,69,85,36.7161,37.115,32.23,3.47
588,Nalus,PH,92,71,6.0122,124.5853,84.34,3.91
589,Bonfim,BR,89,64,3.0833,-59.95,78.17,10.85
590,Port Macquarie,AU,41,67,-31.4333,152.9167,82.36,12.15
591,Perbaungan,ID,58,61,3.5679,98.956,89.71,6.42
